{
    "places": [
        {
            "title": "Москва",
            "description": "«Фруктовница», Danfoss, Devi, «Первая грузовая компания», Павел Воля, Skinlite, Импекс Мед, Регионы ТЦ «Июнь», Арт Декор",
            "lat": 55.755826,
            "lng": 37.6173
        },
        {
            "title": "Зеленоград",
            "description": "«Серебряная дыня»",
            "lat": 55.987153,
            "lng": 37.202151
        },
        {
            "title": "Дубна",
            "description": "«Парк Отель Дубна», РБЗ",
            "lat": 56.732020,
            "lng": 37.166897
        },
        {
            "title": "Егорьевск",
            "description": "Юридический Центр «Советник»",
            "lat": 55.385141,
            "lng": 39.032322
        },
        {
            "title": "Санкт-Петербург",
            "description": "Европа Тревел, Просервис",
            "lat": 59.934280,
            "lng": 30.335099
        },
        {
            "title": "Казань",
            "description": "«Эковата-Лидер», АэроТех, СК «Сити»,  ГУП «Агентство стратегических программ»",
            "lat": 55.830431,
            "lng": 49.066081
        },
        {
            "title": "Пенза",
            "description": "Бетонный завод «ТЕРНОВСКИЙ»",
            "lat": 53.227290,
            "lng": 45.000
        },
        {
            "title": "Чебоксары",
            "description": "ЕвроОкна",
            "lat": 56.116766,
            "lng": 47.262782
        },
        {
            "title": "Нижневартовск",
            "description": "Европа Тревел",
            "lat": 60.943118,
            "lng": 76.543372
        },
        {
            "title": "Ноябрьск",
            "description": "Европа Тревел",
            "lat": 63.184196,
            "lng": 75.44776
        },
        {
            "title": "Челябинск",
            "description": "Полисорб",
            "lat": 55.164442,
            "lng": 61.436843
        },
        {
            "title": "Благовещенск",
            "description": "ЛМ Партнер",
            "lat": 50.272776,
            "lng": 127.540402
        },
        {
            "title": "Хабаровск",
            "description": "Оха",
            "lat": 48.502731,
            "lng": 135.06626
        },
        {
            "title": "Астрахань",
            "description": "Displair, Вау Какао, Сеть аптек «Экономъ»",
            "lat": 46.358804,
            "lng": 48.059935
        },
        {
            "title": "Краснодар",
            "description": "Агроторг",
            "lat": 45.039267,
            "lng": 38.987221
        },
        {
            "title": "Уфа",
            "description": "Helfer, РИЧ",
            "lat": 54.738762,
            "lng": 55.972055
        },
        {
            "title": "Нальчик",
            "description": "Бискейк",
            "lat": 43.494992,
            "lng": 43.604513
        },
        {
            "title": "Ижевск",
            "description": "Гамбринус",
            "lat": 56.861860,
            "lng": 53.232428
        },
        {
            "title": "Глазов",
            "description": "«Калашников»",
            "lat": 58.136884,
            "lng": 52.654834
        },
        {
            "title": "Валуйск",
            "description": "«Первая Миля», Валуйский ЛВЗ",
            "lat": 50.202574,
            "lng": 38.118053
        },
        {
            "title": "Долинск",
            "description": "Вода «Нагиефф»",
            "lat": 47.335006,
            "lng": 142.789952
        },
        {
            "title": "Новосибирск",
            "description": "Вита, Витамина",
            "lat": 55.008353,
            "lng": 82.935733
        },
        {
            "title": "Камышин",
            "description": "Любимый город",
            "lat": 50.094634,
            "lng": 45.393982
        },
        {
            "title": "Белгород",
            "description": "ТД «Добрыня», Синоптики",
            "lat": 50.599713,
            "lng": 36.598262
        },
        {
            "title": "Крым",
            "description": "HotZip",
            "lat": 44.952117,
            "lng": 34.102417
        },
        {
            "title": "Ростов-на-Дону",
            "description": "ЛВЗ Ламос",
            "lat": 47.235714,
            "lng": 39.701505
        },
        {
            "title": "Кашира",
            "description": "Каширский двор, Газета «Каширская жизнь»",
            "lat": 54.843831,
            "lng": 38.186221
        },
        {
            "title": "Шуйск",
            "description": "«Серебряный дракон»",
            "lat": 59.373599,
            "lng": 41.031203
        },
        {
            "title": "Тула",
            "description": "ТД МашЗавод, Лаборатория строительных технологий ЛАСТ",
            "lat": 54.204836,
            "lng": 37.618492
        },
        {
            "title": "Ярославль",
            "description": "ООО «ЭКОГАРАНТ-Инжиниринг»",
            "lat": 57.626074,
            "lng": 39.884471
        },
        {
            "title": "Харьков",
            "description": "Oands",
            "lat": 49.993500,
            "lng": 36.230383
        },
        {
            "title": "Китай  (провинция Цзиньчжоу)",
            "description": "Shannon tea",
            "lat": 39.050460,
            "lng": 121.782769
        },
        {
            "title": "Венгрия (г. Будапешт)",
            "description": "HammyToys",
            "lat": 47.497912,
            "lng": 19.040235
        },
        {
            "title": "Корея (город Сеул)",
            "description": "Oriset",
            "lat": 37.566535,
            "lng": 126.977969
        },
        {
            "title": "Вьетнам (город Нячанг)",
            "description": "Русский ресторан «Парк Горького»",
            "lat": 12.238791,
            "lng": 109.196749
        },
        {
            "title": "Италия (город Падуя)",
            "description": "Forza 10",
            "lat": 45.406435,
            "lng": 11.876761
        },
    ]
}
